{
  "locations": [
    {
      "name": "GG Royal Hotel",
      "coordinates": {
        "latitude": 9.0020233,
        "longitude": 38.8013214
      },
      "category": "Hotels",
      "description": "",
      "opening_hours": "",
      "contact": {
        "phone": "+251116292329/30,+251114335567",
        "email": ""
      }
    },
    {
      "name": "Sky Hotel",
      "coordinates": {
        "latitude": 9.0012857,
        "longitude": 38.8024922
      },
      "category": "Hotels",
      "description": "",
      "opening_hours": "",
      "contact": {
        "phone": "",
        "email": ""
      }
    },
    {
      "name": "Eliston Hotel",
      "coordinates": {
        "latitude": 9.0011167,
        "longitude": 38.802732
      },
      "category": "Hotels",
      "description": "",
      "opening_hours": "24/7",
      "contact": {
        "phone": "",
        "email": ""
      }
    },
    {
      "name": "3F furniture factory",
      "coordinates": {
        "latitude": 8.955083,
        "longitude": 38.76352
      },
      "category": "Hotels",
      "description": "",
      "opening_hours": "",
      "contact": {
        "phone": "",
        "email": ""
      }
    },
    {
      "name": "Baks Hotel Appartement",
      "coordinates": {
        "latitude": 8.999538,
        "longitude": 38.804825
      },
      "category": "Hotels",
      "description": "",
      "opening_hours": "",
      "contact": {
        "phone": "",
        "email": ""
      }
    },
    {
      "name": "Temudas Pension",
      "coordinates": {
        "latitude": 9.0011052,
        "longitude": 38.7838473
      },
      "category": "Hotels",
      "description": "",
      "opening_hours": "",
      "contact": {
        "phone": "",
        "email": ""
      }
    },
    {
      "name": "Tina Guest House",
      "coordinates": {
        "latitude": 8.99672,
        "longitude": 38.77568
      },
      "category": "Hotels",
      "description": "",
      "opening_hours": "",
      "contact": {
        "phone": "",
        "email": ""
      }
    },
    {
      "name": "kality-Crown Hotel",
      "coordinates": {
        "latitude": 8.9137151,
        "longitude": 38.7627101
      },
      "category": "Hotels",
      "description": "",
      "opening_hours": "",
      "contact": {
        "phone": "",
        "email": ""
      }
    },
    {
      "name": "Bole International Hotel",
      "coordinates": {
        "latitude": 8.99251,
        "longitude": 38.7914608
      },
      "category": "Hotels",
      "description": "",
      "opening_hours": "",
      "contact": {
        "phone": "+251116633000,+251116633840",
        "email": ""
      }
    },
    {
      "name": "Finfine Adarash Hotel",
      "coordinates": {
        "latitude": 9.0175679,
        "longitude": 38.7581026
      },
      "category": "Hotels",
      "description": "",
      "opening_hours": "",
      "contact": {
        "phone": "",
        "email": ""
      }
    },
    {
      "name": "Global Hotel",
      "coordinates": {
        "latitude": 8.9937198,
        "longitude": 38.7598634
      },
      "category": "Hotels",
      "description": "",
      "opening_hours": "",
      "contact": {
        "phone": "+251114664766,   +251 114663906",
        "email": ""
      }
    },
    {
      "name": "Ghion Hotel",
      "coordinates": {
        "latitude": 9.0137992,
        "longitude": 38.760304
      },
      "category": "Hotels",
      "description": "",
      "opening_hours": "",
      "contact": {
        "phone": "+251115513222",
        "email": ""
      }
    },
    {
      "name": "Ebenezer Hotel & Guest House",
      "coordinates": {
        "latitude": 9.0326162,
        "longitude": 38.773138
      },
      "category": "Hotels",
      "description": "",
      "opening_hours": "",
      "contact": {
        "phone": "+251111231276",
        "email": ""
      }
    },
    {
      "name": "Belair Hotel",
      "coordinates": {
        "latitude": 9.0309271,
        "longitude": 38.7748257
      },
      "category": "Hotels",
      "description": "",
      "opening_hours": "",
      "contact": {
        "phone": "",
        "email": ""
      }
    },
    {
      "name": "Aseb Qestedamena Hotel",
      "coordinates": {
        "latitude": 9.0157212,
        "longitude": 38.7707264
      },
      "category": "Hotels",
      "description": "",
      "opening_hours": "",
      "contact": {
        "phone": "",
        "email": ""
      }
    },
    {
      "name": "Harar Ber Hotel",
      "coordinates": {
        "latitude": 9.0155824,
        "longitude": 38.7709433
      },
      "category": "Hotels",
      "description": "",
      "opening_hours": "",
      "contact": {
        "phone": "",
        "email": ""
      }
    },
    {
      "name": "DS Guesthouse",
      "coordinates": {
        "latitude": 9.0025328,
        "longitude": 38.7833356
      },
      "category": "Hotels",
      "description": "",
      "opening_hours": "",
      "contact": {
        "phone": "",
        "email": ""
      }
    },
    {
      "name": "Tedela",
      "coordinates": {
        "latitude": 9.0317446,
        "longitude": 38.7535529
      },
      "category": "Hotels",
      "description": "",
      "opening_hours": "",
      "contact": {
        "phone": "+251111559147",
        "email": ""
      }
    },
    {
      "name": "Abyssinia",
      "coordinates": {
        "latitude": 9.0316652,
        "longitude": 38.7538256
      },
      "category": "Hotels",
      "description": "",
      "opening_hours": "",
      "contact": {
        "phone": "",
        "email": ""
      }
    },
    {
      "name": "Queens",
      "coordinates": {
        "latitude": 9.0319103,
        "longitude": 38.7536053
      },
      "category": "Hotels",
      "description": "",
      "opening_hours": "",
      "contact": {
        "phone": "+251111557731",
        "email": ""
      }
    },
    {
      "name": "National",
      "coordinates": {
        "latitude": 9.0313133,
        "longitude": 38.7539456
      },
      "category": "Hotels",
      "description": "",
      "opening_hours": "",
      "contact": {
        "phone": "+251111551678",
        "email": ""
      }
    },
    {
      "name": "Kangaroo",
      "coordinates": {
        "latitude": 9.0341876,
        "longitude": 38.7444164
      },
      "category": "Hotels",
      "description": "",
      "opening_hours": "",
      "contact": {
        "phone": "",
        "email": ""
      }
    },
    {
      "name": "Wegagen Hotel",
      "coordinates": {
        "latitude": 9.0314766,
        "longitude": 38.7538075
      },
      "category": "Hotels",
      "description": "",
      "opening_hours": "",
      "contact": {
        "phone": "+251111115308",
        "email": ""
      }
    },
    {
      "name": "Biruk Bed & Breakfast",
      "coordinates": {
        "latitude": 8.9970349,
        "longitude": 38.7813266
      },
      "category": "Hotels",
      "description": "",
      "opening_hours": "",
      "contact": {
        "phone": "",
        "email": ""
      }
    },
    {
      "name": "Merci Hotel",
      "coordinates": {
        "latitude": 8.9941061,
        "longitude": 38.7477411
      },
      "category": "Hotels",
      "description": "",
      "opening_hours": "",
      "contact": {
        "phone": "",
        "email": ""
      }
    },
    {
      "name": "Luhena Hotel - Cafe, Bar and Restaurant",
      "coordinates": {
        "latitude": 8.9892016,
        "longitude": 38.7656243
      },
      "category": "Hotels",
      "description": "",
      "opening_hours": "",
      "contact": {
        "phone": "+251114166956",
        "email": ""
      }
    },
    {
      "name": "Abesha Bar and Restaurant",
      "coordinates": {
        "latitude": 9.010853,
        "longitude": 38.7487685
      },
      "category": "Hotels",
      "description": "",
      "opening_hours": "",
      "contact": {
        "phone": "+251115503128",
        "email": ""
      }
    },
    {
      "name": "Ibex Hotel",
      "coordinates": {
        "latitude": 8.9888581,
        "longitude": 38.7714858
      },
      "category": "Hotels",
      "description": "",
      "opening_hours": "24/7",
      "contact": {
        "phone": "+251114654400",
        "email": ""
      }
    },
    {
      "name": "Hewan",
      "coordinates": {
        "latitude": 8.908549,
        "longitude": 38.765083
      },
      "category": "Hotels",
      "description": "",
      "opening_hours": "",
      "contact": {
        "phone": "",
        "email": ""
      }
    },
    {
      "name": "Wanos",
      "coordinates": {
        "latitude": 8.902973,
        "longitude": 38.76657
      },
      "category": "Hotels",
      "description": "",
      "opening_hours": "",
      "contact": {
        "phone": "",
        "email": ""
      }
    },
    {
      "name": "Life Pension No 1",
      "coordinates": {
        "latitude": 9.0265622,
        "longitude": 38.7566837
      },
      "category": "Hotels",
      "description": "",
      "opening_hours": "",
      "contact": {
        "phone": "",
        "email": ""
      }
    },
    {
      "name": "Life Pension No 2",
      "coordinates": {
        "latitude": 9.045095,
        "longitude": 38.7415136
      },
      "category": "Hotels",
      "description": "",
      "opening_hours": "",
      "contact": {
        "phone": "",
        "email": ""
      }
    },
    {
      "name": "Baro2 Hotel",
      "coordinates": {
        "latitude": 8.956573,
        "longitude": 38.7650523
      },
      "category": "Hotels",
      "description": "",
      "opening_hours": "",
      "contact": {
        "phone": "",
        "email": ""
      }
    },
    {
      "name": "Baro Hotel",
      "coordinates": {
        "latitude": 9.0307353,
        "longitude": 38.7534372
      },
      "category": "Hotels",
      "description": "",
      "opening_hours": "",
      "contact": {
        "phone": "",
        "email": ""
      }
    },
    {
      "name": "Soramba Hotel",
      "coordinates": {
        "latitude": 9.0408344,
        "longitude": 38.7508925
      },
      "category": "Hotels",
      "description": "",
      "opening_hours": "",
      "contact": {
        "phone": "+251111565633",
        "email": "sorambahotel@ethionet.et"
      }
    },
    {
      "name": "Korebtama Menafesha Hotel",
      "coordinates": {
        "latitude": 9.0235344,
        "longitude": 38.8174369
      },
      "category": "Hotels",
      "description": "",
      "opening_hours": "",
      "contact": {
        "phone": "",
        "email": ""
      }
    },
    {
      "name": "Yilma Hotel",
      "coordinates": {
        "latitude": 8.9826292,
        "longitude": 38.7311814
      },
      "category": "Hotels",
      "description": "",
      "opening_hours": "",
      "contact": {
        "phone": "",
        "email": ""
      }
    },
    {
      "name": "Adey Hotel",
      "coordinates": {
        "latitude": 8.9573653,
        "longitude": 38.7644602
      },
      "category": "Hotels",
      "description": "",
      "opening_hours": "",
      "contact": {
        "phone": "",
        "email": ""
      }
    },
    {
      "name": "Saris checheho Hotel",
      "coordinates": {
        "latitude": 8.957304,
        "longitude": 38.7647211
      },
      "category": "Hotels",
      "description": "",
      "opening_hours": "",
      "contact": {
        "phone": "",
        "email": ""
      }
    },
    {
      "name": "Monalisa Hotel",
      "coordinates": {
        "latitude": 9.0277047,
        "longitude": 38.7752204
      },
      "category": "Hotels",
      "description": "",
      "opening_hours": "",
      "contact": {
        "phone": "",
        "email": ""
      }
    },
    {
      "name": "Lido Hotel",
      "coordinates": {
        "latitude": 9.0166075,
        "longitude": 38.7474707
      },
      "category": "Hotels",
      "description": "",
      "opening_hours": "",
      "contact": {
        "phone": "+251115514488",
        "email": ""
      }
    },
    {
      "name": "Meridian Hotel",
      "coordinates": {
        "latitude": 8.9923752,
        "longitude": 38.7813385
      },
      "category": "Hotels",
      "description": "",
      "opening_hours": "",
      "contact": {
        "phone": "+251116615050",
        "email": "meridianhotel@ethionet.et"
      }
    },
    {
      "name": "Ambassador Hotel Bole",
      "coordinates": {
        "latitude": 8.9920961,
        "longitude": 38.7879823
      },
      "category": "Hotels",
      "description": "",
      "opening_hours": "",
      "contact": {
        "phone": "+251116188284",
        "email": ""
      }
    },
    {
      "name": "Hawi Hotel",
      "coordinates": {
        "latitude": 8.9895749,
        "longitude": 38.7582428
      },
      "category": "Hotels",
      "description": "",
      "opening_hours": "",
      "contact": {
        "phone": "+251114654499,+25111416471",
        "email": ""
      }
    },
    {
      "name": "Jupiter international (Bole)",
      "coordinates": {
        "latitude": 8.9890962,
        "longitude": 38.78549
      },
      "category": "Hotels",
      "description": "",
      "opening_hours": "",
      "contact": {
        "phone": "+251 (0) 11 661 6969, +251 (0) 11 552 7333",
        "email": "jupiter@ethionet.et"
      }
    },
    {
      "name": "Mac Addis",
      "coordinates": {
        "latitude": 8.9904268,
        "longitude": 38.7800987
      },
      "category": "Hotels",
      "description": "",
      "opening_hours": "",
      "contact": {
        "phone": "",
        "email": ""
      }
    },
    {
      "name": "Omedla Hotel",
      "coordinates": {
        "latitude": 8.9847477,
        "longitude": 38.7593778
      },
      "category": "Hotels",
      "description": "",
      "opening_hours": "",
      "contact": {
        "phone": "+251114664748",
        "email": ""
      }
    },
    {
      "name": "Gibe Hotel",
      "coordinates": {
        "latitude": 9.0344488,
        "longitude": 38.7547933
      },
      "category": "Hotels",
      "description": "",
      "opening_hours": "",
      "contact": {
        "phone": "",
        "email": ""
      }
    },
    {
      "name": "Menahereya",
      "coordinates": {
        "latitude": 9.0197316,
        "longitude": 38.7679356
      },
      "category": "Hotels",
      "description": "",
      "opening_hours": "",
      "contact": {
        "phone": "",
        "email": ""
      }
    },
    {
      "name": "Quara Hotel",
      "coordinates": {
        "latitude": 9.017716,
        "longitude": 38.7679462
      },
      "category": "Hotels",
      "description": "",
      "opening_hours": "",
      "contact": {
        "phone": "",
        "email": ""
      }
    },
    {
      "name": "Continental Hotel | ኮንትኔንታል ሆቴል",
      "coordinates": {
        "latitude": 9.0311416,
        "longitude": 38.7552823
      },
      "category": "Hotels",
      "description": "",
      "opening_hours": "",
      "contact": {
        "phone": "",
        "email": ""
      }
    },
    {
      "name": "Wutma Hotel",
      "coordinates": {
        "latitude": 9.03087,
        "longitude": 38.7531679
      },
      "category": "Hotels",
      "description": "Wutma Hotel, Restauran & Awura Travel Agency",
      "opening_hours": "",
      "contact": {
        "phone": "",
        "email": ""
      }
    },
    {
      "name": "Skylight In-Terminal Hotel",
      "coordinates": {
        "latitude": 8.9833477,
        "longitude": 38.7938428
      },
      "category": "Hotels",
      "description": "",
      "opening_hours": "",
      "contact": {
        "phone": "",
        "email": ""
      }
    },
    {
      "name": "Comfy Spot Guest House",
      "coordinates": {
        "latitude": 9.0394767,
        "longitude": 38.7475439
      },
      "category": "Hotels",
      "description": "",
      "opening_hours": "",
      "contact": {
        "phone": "",
        "email": ""
      }
    },
    {
      "name": "Tiga Hotel",
      "coordinates": {
        "latitude": 9.0387743,
        "longitude": 38.7477307
      },
      "category": "Hotels",
      "description": "",
      "opening_hours": "",
      "contact": {
        "phone": "251 (0) 11 618 88 51/52/45",
        "email": ""
      }
    },
    {
      "name": "Nati Hotel",
      "coordinates": {
        "latitude": 8.9823711,
        "longitude": 38.7739645
      },
      "category": "Hotels",
      "description": "",
      "opening_hours": "",
      "contact": {
        "phone": "",
        "email": ""
      }
    },
    {
      "name": "Family Cozy Bed and Breakfast",
      "coordinates": {
        "latitude": 8.988766,
        "longitude": 38.7720265
      },
      "category": "Hotels",
      "description": "",
      "opening_hours": "",
      "contact": {
        "phone": "",
        "email": ""
      }
    },
    {
      "name": "Vila Dize Enze Guest house",
      "coordinates": {
        "latitude": 8.9869711,
        "longitude": 38.7784658
      },
      "category": "Hotels",
      "description": "",
      "opening_hours": "",
      "contact": {
        "phone": "",
        "email": ""
      }
    },
    {
      "name": "Bete Abrham Hotel",
      "coordinates": {
        "latitude": 8.9860117,
        "longitude": 38.7848911
      },
      "category": "Hotels",
      "description": "",
      "opening_hours": "",
      "contact": {
        "phone": "+251 11 662 22 45",
        "email": ""
      }
    },
    {
      "name": "Roha Guest House",
      "coordinates": {
        "latitude": 8.995863,
        "longitude": 38.7764106
      },
      "category": "Hotels",
      "description": "",
      "opening_hours": "",
      "contact": {
        "phone": "",
        "email": ""
      }
    },
    {
      "name": "Ararat Hotel",
      "coordinates": {
        "latitude": 9.0242189,
        "longitude": 38.8182913
      },
      "category": "Hotels",
      "description": "",
      "opening_hours": "",
      "contact": {
        "phone": "",
        "email": ""
      }
    },
    {
      "name": "ደገሰ ሆቴል",
      "coordinates": {
        "latitude": 8.9489349,
        "longitude": 38.7274878
      },
      "category": "Hotels",
      "description": "",
      "opening_hours": "",
      "contact": {
        "phone": "",
        "email": ""
      }
    },
    {
      "name": "top ten hotel",
      "coordinates": {
        "latitude": 9.0192236,
        "longitude": 38.822029
      },
      "category": "Hotels",
      "description": "",
      "opening_hours": "",
      "contact": {
        "phone": "",
        "email": ""
      }
    },
    {
      "name": "Lomi Guest House",
      "coordinates": {
        "latitude": 9.034969,
        "longitude": 38.771331
      },
      "category": "Hotels",
      "description": "",
      "opening_hours": "",
      "contact": {
        "phone": "+251 111 233628",
        "email": ""
      }
    },
    {
      "name": "Base Ethiopia",
      "coordinates": {
        "latitude": 9.004918,
        "longitude": 38.780365
      },
      "category": "Hotels",
      "description": "",
      "opening_hours": "",
      "contact": {
        "phone": "",
        "email": ""
      }
    },
    {
      "name": "Union Hotel Apartment",
      "coordinates": {
        "latitude": 8.9966375,
        "longitude": 38.7439038
      },
      "category": "Hotels",
      "description": "",
      "opening_hours": "",
      "contact": {
        "phone": "",
        "email": ""
      }
    },
    {
      "name": "Aphrodite International Hotel",
      "coordinates": {
        "latitude": 9.013673,
        "longitude": 38.7692111
      },
      "category": "Hotels",
      "description": "",
      "opening_hours": "",
      "contact": {
        "phone": "",
        "email": ""
      }
    },
    {
      "name": "Monarch Hotel",
      "coordinates": {
        "latitude": 8.9946962,
        "longitude": 38.7853721
      },
      "category": "Hotels",
      "description": "",
      "opening_hours": "",
      "contact": {
        "phone": "+251 11 6672480",
        "email": ""
      }
    },
    {
      "name": "Taitu Hotel",
      "coordinates": {
        "latitude": 9.0309642,
        "longitude": 38.7544091
      },
      "category": "Hotels",
      "description": "",
      "opening_hours": "",
      "contact": {
        "phone": "",
        "email": ""
      }
    },
    {
      "name": "Debebe Tekle Hotel",
      "coordinates": {
        "latitude": 9.0028023,
        "longitude": 38.7855807
      },
      "category": "Hotels",
      "description": "",
      "opening_hours": "",
      "contact": {
        "phone": "0910551013",
        "email": ""
      }
    },
    {
      "name": "Liya Guest House",
      "coordinates": {
        "latitude": 9.004048,
        "longitude": 38.7875559
      },
      "category": "Hotels",
      "description": "",
      "opening_hours": "",
      "contact": {
        "phone": "",
        "email": "liyaguesthouse@gmail.com"
      }
    },
    {
      "name": "Louvre Hotel",
      "coordinates": {
        "latitude": 9.0250365,
        "longitude": 38.7868665
      },
      "category": "Hotels",
      "description": "",
      "opening_hours": "",
      "contact": {
        "phone": "",
        "email": ""
      }
    },
    {
      "name": "Zola International Hotel",
      "coordinates": {
        "latitude": 9.0037492,
        "longitude": 38.7973056
      },
      "category": "Hotels",
      "description": "",
      "opening_hours": "",
      "contact": {
        "phone": "",
        "email": ""
      }
    },
    {
      "name": "Selam Pension",
      "coordinates": {
        "latitude": 9.0033242,
        "longitude": 38.767002
      },
      "category": "Hotels",
      "description": "",
      "opening_hours": "",
      "contact": {
        "phone": "",
        "email": ""
      }
    },
    {
      "name": "Panorama Hotel",
      "coordinates": {
        "latitude": 9.0177703,
        "longitude": 38.7965907
      },
      "category": "Hotels",
      "description": "",
      "opening_hours": "",
      "contact": {
        "phone": "",
        "email": ""
      }
    },
    {
      "name": "Sheba Guest House",
      "coordinates": {
        "latitude": 8.9978762,
        "longitude": 38.7767705
      },
      "category": "Hotels",
      "description": "",
      "opening_hours": "",
      "contact": {
        "phone": "",
        "email": ""
      }
    },
    {
      "name": "Tsegreda Hotel",
      "coordinates": {
        "latitude": 9.0312974,
        "longitude": 38.7539678
      },
      "category": "Hotels",
      "description": "",
      "opening_hours": "",
      "contact": {
        "phone": "",
        "email": ""
      }
    },
    {
      "name": "Amanaya Guesthouse",
      "coordinates": {
        "latitude": 9.0044463,
        "longitude": 38.8113661
      },
      "category": "Hotels",
      "description": "",
      "opening_hours": "",
      "contact": {
        "phone": "",
        "email": ""
      }
    },
    {
      "name": "Eliana Hotel",
      "coordinates": {
        "latitude": 9.0303041,
        "longitude": 38.7509747
      },
      "category": "Hotels",
      "description": "",
      "opening_hours": "",
      "contact": {
        "phone": "",
        "email": ""
      }
    },
    {
      "name": "Bow Hotel B&B",
      "coordinates": {
        "latitude": 8.9983964,
        "longitude": 38.7648233
      },
      "category": "Hotels",
      "description": "",
      "opening_hours": "",
      "contact": {
        "phone": "",
        "email": ""
      }
    },
    {
      "name": "bela addis hotel",
      "coordinates": {
        "latitude": 8.9522715,
        "longitude": 38.7161441
      },
      "category": "Hotels",
      "description": "",
      "opening_hours": "",
      "contact": {
        "phone": "",
        "email": ""
      }
    },
    {
      "name": "Empire Addis International Hotel",
      "coordinates": {
        "latitude": 8.99228,
        "longitude": 38.7874393
      },
      "category": "Hotels",
      "description": "",
      "opening_hours": "",
      "contact": {
        "phone": "",
        "email": ""
      }
    },
    {
      "name": "الفندق قام نام مسكن فلور ",
      "coordinates": {
        "latitude": 8.9980287,
        "longitude": 38.7678288
      },
      "category": "Hotels",
      "description": "",
      "opening_hours": "",
      "contact": {
        "phone": "",
        "email": ""
      }
    },
    {
      "name": "UMMA Hotel",
      "coordinates": {
        "latitude": 9.0031368,
        "longitude": 38.7191086
      },
      "category": "Hotels",
      "description": "",
      "opening_hours": "",
      "contact": {
        "phone": "",
        "email": ""
      }
    },
    {
      "name": "Yeka Guest House",
      "coordinates": {
        "latitude": 9.0326656,
        "longitude": 38.7815308
      },
      "category": "Hotels",
      "description": "",
      "opening_hours": "Mo-Su 06:00-22:00",
      "contact": {
        "phone": "",
        "email": ""
      }
    },
    {
      "name": "Residence Hotel",
      "coordinates": {
        "latitude": 9.0045836,
        "longitude": 38.769681
      },
      "category": "Hotels",
      "description": "",
      "opening_hours": "",
      "contact": {
        "phone": "",
        "email": ""
      }
    },
    {
      "name": "Wudasie hotel",
      "coordinates": {
        "latitude": 9.0090895,
        "longitude": 38.7807595
      },
      "category": "Hotels",
      "description": "",
      "opening_hours": "",
      "contact": {
        "phone": "+251116622727",
        "email": ""
      }
    },
    {
      "name": "Denuka Hotel",
      "coordinates": {
        "latitude": 8.9963128,
        "longitude": 38.8134851
      },
      "category": "Hotels",
      "description": "",
      "opening_hours": "24/7",
      "contact": {
        "phone": "",
        "email": ""
      }
    },
    {
      "name": "Tesfu Hotel",
      "coordinates": {
        "latitude": 9.0188369,
        "longitude": 38.8734931
      },
      "category": "Hotels",
      "description": "",
      "opening_hours": "",
      "contact": {
        "phone": "",
        "email": ""
      }
    },
    {
      "name": "Tesfu Hotel",
      "coordinates": {
        "latitude": 9.018696,
        "longitude": 38.873396
      },
      "category": "Hotels",
      "description": "",
      "opening_hours": "",
      "contact": {
        "phone": "",
        "email": ""
      }
    },
    {
      "name": "Foyat Hotel",
      "coordinates": {
        "latitude": 8.9913672,
        "longitude": 38.794219
      },
      "category": "Hotels",
      "description": "",
      "opening_hours": "",
      "contact": {
        "phone": "",
        "email": ""
      }
    },
    {
      "name": "Sheza Guest House",
      "coordinates": {
        "latitude": 9.0021742,
        "longitude": 38.8006459
      },
      "category": "Hotels",
      "description": "",
      "opening_hours": "",
      "contact": {
        "phone": "",
        "email": ""
      }
    },
    {
      "name": "FOYAT HOTEL",
      "coordinates": {
        "latitude": 8.9912752,
        "longitude": 38.7942496
      },
      "category": "Hotels",
      "description": "",
      "opening_hours": "",
      "contact": {
        "phone": "",
        "email": ""
      }
    },
    {
      "name": "Momona Hotel",
      "coordinates": {
        "latitude": 8.9906479,
        "longitude": 38.7851351
      },
      "category": "Hotels",
      "description": "",
      "opening_hours": "",
      "contact": {
        "phone": "",
        "email": ""
      }
    },
    {
      "name": "yeshi",
      "coordinates": {
        "latitude": 9.0294717,
        "longitude": 38.7716531
      },
      "category": "Hotels",
      "description": "",
      "opening_hours": "",
      "contact": {
        "phone": "",
        "email": ""
      }
    },
    {
      "name": "Capital Hotel & Spa",
      "coordinates": {
        "latitude": 9.0134031,
        "longitude": 38.7797654
      },
      "category": "Hotels",
      "description": "",
      "opening_hours": "24/7",
      "contact": {
        "phone": "",
        "email": ""
      }
    },
    {
      "name": "Friendship International hotel",
      "coordinates": {
        "latitude": 8.9940077,
        "longitude": 38.7845855
      },
      "category": "Hotels",
      "description": "",
      "opening_hours": "",
      "contact": {
        "phone": "",
        "email": ""
      }
    },
    {
      "name": "Ramada Hotel",
      "coordinates": {
        "latitude": 8.991901,
        "longitude": 38.7828275
      },
      "category": "Hotels",
      "description": "",
      "opening_hours": "",
      "contact": {
        "phone": "",
        "email": ""
      }
    },
    {
      "name": "Demitri Hotel",
      "coordinates": {
        "latitude": 9.0235278,
        "longitude": 38.8263151
      },
      "category": "Hotels",
      "description": "",
      "opening_hours": "",
      "contact": {
        "phone": "",
        "email": ""
      }
    },
    {
      "name": "Bagy Hotel",
      "coordinates": {
        "latitude": 8.9866857,
        "longitude": 38.787543
      },
      "category": "Hotels",
      "description": "",
      "opening_hours": "",
      "contact": {
        "phone": "",
        "email": ""
      }
    },
    {
      "name": "WGM Apartments",
      "coordinates": {
        "latitude": 8.9856101,
        "longitude": 38.7872185
      },
      "category": "Hotels",
      "description": "",
      "opening_hours": "",
      "contact": {
        "phone": "",
        "email": ""
      }
    },
    {
      "name": "Afropolitan Hotel",
      "coordinates": {
        "latitude": 9.0180458,
        "longitude": 38.7901102
      },
      "category": "Hotels",
      "description": "",
      "opening_hours": "",
      "contact": {
        "phone": "",
        "email": ""
      }
    },
    {
      "name": "Hometown Addis Hotel",
      "coordinates": {
        "latitude": 9.0028399,
        "longitude": 38.7794885
      },
      "category": "Hotels",
      "description": "",
      "opening_hours": "",
      "contact": {
        "phone": "",
        "email": ""
      }
    },
    {
      "name": "Washington Hotel",
      "coordinates": {
        "latitude": 9.0021183,
        "longitude": 38.7801026
      },
      "category": "Hotels",
      "description": "",
      "opening_hours": "",
      "contact": {
        "phone": "",
        "email": ""
      }
    },
    {
      "name": "Classic Hotel",
      "coordinates": {
        "latitude": 9.0138527,
        "longitude": 38.7819356
      },
      "category": "Hotels",
      "description": "",
      "opening_hours": "",
      "contact": {
        "phone": "",
        "email": ""
      }
    },
    {
      "name": "Golden Tulip",
      "coordinates": {
        "latitude": 8.9955392,
        "longitude": 38.7870007
      },
      "category": "Hotels",
      "description": "",
      "opening_hours": "",
      "contact": {
        "phone": "",
        "email": ""
      }
    },
    {
      "name": "Guangdong Hotel",
      "coordinates": {
        "latitude": 8.988572,
        "longitude": 38.7874905
      },
      "category": "Hotels",
      "description": "",
      "opening_hours": "",
      "contact": {
        "phone": "",
        "email": ""
      }
    },
    {
      "name": "Josha",
      "coordinates": {
        "latitude": 9.0181493,
        "longitude": 38.8449683
      },
      "category": "Hotels",
      "description": "",
      "opening_hours": "",
      "contact": {
        "phone": "",
        "email": ""
      }
    },
    {
      "name": "KG",
      "coordinates": {
        "latitude": 9.0347693,
        "longitude": 38.8184562
      },
      "category": "Hotels",
      "description": "",
      "opening_hours": "",
      "contact": {
        "phone": "",
        "email": ""
      }
    },
    {
      "name": "Azzeman",
      "coordinates": {
        "latitude": 9.0015028,
        "longitude": 38.7820596
      },
      "category": "Hotels",
      "description": "",
      "opening_hours": "",
      "contact": {
        "phone": "",
        "email": ""
      }
    },
    {
      "name": "SIM - Guesthouse",
      "coordinates": {
        "latitude": 9.0213399,
        "longitude": 38.7483499
      },
      "category": "Hotels",
      "description": "",
      "opening_hours": "",
      "contact": {
        "phone": "",
        "email": ""
      }
    },
    {
      "name": "Hareg Hotel",
      "coordinates": {
        "latitude": 9.0396744,
        "longitude": 38.8509016
      },
      "category": "Hotels",
      "description": "",
      "opening_hours": "",
      "contact": {
        "phone": "",
        "email": ""
      }
    },
    {
      "name": "Solish Hotel",
      "coordinates": {
        "latitude": 9.0124083,
        "longitude": 38.7412988
      },
      "category": "Hotels",
      "description": "",
      "opening_hours": "",
      "contact": {
        "phone": "",
        "email": ""
      }
    },
    {
      "name": "Game Hotel",
      "coordinates": {
        "latitude": 8.9670419,
        "longitude": 38.7641067
      },
      "category": "Hotels",
      "description": "",
      "opening_hours": "",
      "contact": {
        "phone": "",
        "email": ""
      }
    },
    {
      "name": "Chuchu Hotel",
      "coordinates": {
        "latitude": 8.9827833,
        "longitude": 38.76381
      },
      "category": "Hotels",
      "description": "",
      "opening_hours": "",
      "contact": {
        "phone": "",
        "email": ""
      }
    },
    {
      "name": "Metro Hotel",
      "coordinates": {
        "latitude": 9.0294238,
        "longitude": 38.7387594
      },
      "category": "Hotels",
      "description": "",
      "opening_hours": "",
      "contact": {
        "phone": "",
        "email": ""
      }
    },
    {
      "name": "Dave's Home",
      "coordinates": {
        "latitude": 9.0354295,
        "longitude": 38.880185
      },
      "category": "Hotels",
      "description": "",
      "opening_hours": "",
      "contact": {
        "phone": "",
        "email": ""
      }
    },
    {
      "name": "Home",
      "coordinates": {
        "latitude": 9.0026179,
        "longitude": 38.8007961
      },
      "category": "Hotels",
      "description": "",
      "opening_hours": "",
      "contact": {
        "phone": "",
        "email": ""
      }
    },
    {
      "name": "Bole Guesthouse",
      "coordinates": {
        "latitude": 9.0018733,
        "longitude": 38.7720964
      },
      "category": "Hotels",
      "description": "",
      "opening_hours": "",
      "contact": {
        "phone": "+251931304000",
        "email": "reservations@boleguesthouse.com"
      }
    },
    {
      "name": "Medhanialem condominium",
      "coordinates": {
        "latitude": 9.0556268,
        "longitude": 38.7219407
      },
      "category": "Hotels",
      "description": "",
      "opening_hours": "",
      "contact": {
        "phone": "",
        "email": ""
      }
    },
    {
      "name": "Gentle Hotel",
      "coordinates": {
        "latitude": 9.0233147,
        "longitude": 38.8198449
      },
      "category": "Hotels",
      "description": "",
      "opening_hours": "24/7",
      "contact": {
        "phone": "+251 116676065",
        "email": "reservation@gentlehoteladdis.com"
      }
    },
    {
      "name": "condo",
      "coordinates": {
        "latitude": 8.9963089,
        "longitude": 38.7654814
      },
      "category": "Hotels",
      "description": "",
      "opening_hours": "",
      "contact": {
        "phone": "",
        "email": ""
      }
    },
    {
      "name": "Pacific Hotel",
      "coordinates": {
        "latitude": 9.0231924,
        "longitude": 38.8196463
      },
      "category": "Hotels",
      "description": "",
      "opening_hours": "",
      "contact": {
        "phone": "",
        "email": ""
      }
    },
    {
      "name": "Tiru bet Guest House",
      "coordinates": {
        "latitude": 9.0134866,
        "longitude": 38.784074
      },
      "category": "Hotels",
      "description": "",
      "opening_hours": "",
      "contact": {
        "phone": "+251913026341",
        "email": "toteddyalem@gmail.com"
      }
    },
    {
      "name": "Eyob G/tinsae G. House እዮብ",
      "coordinates": {
        "latitude": 8.9956254,
        "longitude": 38.8486678
      },
      "category": "Hotels",
      "description": "",
      "opening_hours": "",
      "contact": {
        "phone": "",
        "email": ""
      }
    },
    {
      "name": "Mulugeta G/gergs G. House ሙሉጌታ ገ/ገርግስ",
      "coordinates": {
        "latitude": 9.0110715,
        "longitude": 38.8248231
      },
      "category": "Hotels",
      "description": "",
      "opening_hours": "",
      "contact": {
        "phone": "",
        "email": ""
      }
    },
    {
      "name": "Beyene Gebretinsae G. House በየነ ገ/ትንሳኤ",
      "coordinates": {
        "latitude": 8.9878652,
        "longitude": 38.7814699
      },
      "category": "Hotels",
      "description": "",
      "opening_hours": "",
      "contact": {
        "phone": "",
        "email": ""
      }
    },
    {
      "name": "Jambo Real Estate, Meskel Flower Apartment",
      "coordinates": {
        "latitude": 8.988551,
        "longitude": 38.7624464
      },
      "category": "Hotels",
      "description": "",
      "opening_hours": "Mo-Sa 09:00-17:00",
      "contact": {
        "phone": "",
        "email": ""
      }
    },
    {
      "name": "Jambo bela apartment",
      "coordinates": {
        "latitude": 9.0444413,
        "longitude": 38.7833632
      },
      "category": "Hotels",
      "description": "",
      "opening_hours": "",
      "contact": {
        "phone": "",
        "email": ""
      }
    },
    {
      "name": "SGS Hotel",
      "coordinates": {
        "latitude": 9.0572284,
        "longitude": 38.740612
      },
      "category": "Hotels",
      "description": "",
      "opening_hours": "",
      "contact": {
        "phone": "",
        "email": ""
      }
    },
    {
      "name": "Embilta Hotel",
      "coordinates": {
        "latitude": 9.049018,
        "longitude": 38.7370098
      },
      "category": "Hotels",
      "description": "",
      "opening_hours": "",
      "contact": {
        "phone": "",
        "email": ""
      }
    },
    {
      "name": "Sapphire Addis Hotel",
      "coordinates": {
        "latitude": 9.0002179,
        "longitude": 38.7833921
      },
      "category": "Hotels",
      "description": "",
      "opening_hours": "",
      "contact": {
        "phone": "",
        "email": ""
      }
    },
    {
      "name": "BBC Hotel",
      "coordinates": {
        "latitude": 8.983259,
        "longitude": 38.7760389
      },
      "category": "Hotels",
      "description": "",
      "opening_hours": "",
      "contact": {
        "phone": "",
        "email": ""
      }
    },
    {
      "name": "Fikadu Zeleka",
      "coordinates": {
        "latitude": 9.0422973,
        "longitude": 38.7462432
      },
      "category": "Hotels",
      "description": "",
      "opening_hours": "",
      "contact": {
        "phone": "",
        "email": ""
      }
    },
    {
      "name": "办事处",
      "coordinates": {
        "latitude": 8.9819428,
        "longitude": 38.7337782
      },
      "category": "Hotels",
      "description": "",
      "opening_hours": "",
      "contact": {
        "phone": "",
        "email": ""
      }
    },
    {
      "name": "Abinet Hotel",
      "coordinates": {
        "latitude": 9.0189396,
        "longitude": 38.7332033
      },
      "category": "Hotels",
      "description": "",
      "opening_hours": "",
      "contact": {
        "phone": "",
        "email": ""
      }
    },
    {
      "name": "Getfam Hotel",
      "coordinates": {
        "latitude": 9.0147941,
        "longitude": 38.7837851
      },
      "category": "Hotels",
      "description": "",
      "opening_hours": "",
      "contact": {
        "phone": "",
        "email": ""
      }
    },
    {
      "name": "Blue Birds Hotel",
      "coordinates": {
        "latitude": 9.01557,
        "longitude": 38.7891483
      },
      "category": "Hotels",
      "description": "",
      "opening_hours": "",
      "contact": {
        "phone": "",
        "email": ""
      }
    },
    {
      "name": "Melala Addis Bed&Breakfast",
      "coordinates": {
        "latitude": 9.0203814,
        "longitude": 38.7875347
      },
      "category": "Hotels",
      "description": "",
      "opening_hours": "24/7",
      "contact": {
        "phone": "0921310800",
        "email": "melalaaddis@gmail.com"
      }
    },
    {
      "name": "Alef Hotel",
      "coordinates": {
        "latitude": 9.0161635,
        "longitude": 38.7937419
      },
      "category": "Hotels",
      "description": "",
      "opening_hours": "",
      "contact": {
        "phone": "",
        "email": ""
      }
    },
    {
      "name": "Tirunesh Hotel",
      "coordinates": {
        "latitude": 9.0173675,
        "longitude": 38.7947235
      },
      "category": "Hotels",
      "description": "",
      "opening_hours": "",
      "contact": {
        "phone": "",
        "email": ""
      }
    },
    {
      "name": "Aunt home",
      "coordinates": {
        "latitude": 9.0286052,
        "longitude": 38.8425425
      },
      "category": "Hotels",
      "description": "",
      "opening_hours": "",
      "contact": {
        "phone": "",
        "email": ""
      }
    },
    {
      "name": "Pomy home",
      "coordinates": {
        "latitude": 8.9853883,
        "longitude": 38.8632002
      },
      "category": "Hotels",
      "description": "",
      "opening_hours": "",
      "contact": {
        "phone": "",
        "email": ""
      }
    },
    {
      "name": "ABM PENSION",
      "coordinates": {
        "latitude": 8.9915417,
        "longitude": 38.7683396
      },
      "category": "Hotels",
      "description": "",
      "opening_hours": "24/7",
      "contact": {
        "phone": "",
        "email": ""
      }
    },
    {
      "name": "Liya Pension",
      "coordinates": {
        "latitude": 8.9882356,
        "longitude": 38.78817
      },
      "category": "Hotels",
      "description": "",
      "opening_hours": "",
      "contact": {
        "phone": "",
        "email": ""
      }
    },
    {
      "name": "Amared Hotel",
      "coordinates": {
        "latitude": 8.9867896,
        "longitude": 38.7873209
      },
      "category": "Hotels",
      "description": "",
      "opening_hours": "",
      "contact": {
        "phone": "",
        "email": ""
      }
    },
    {
      "name": "Gofa camp",
      "coordinates": {
        "latitude": 8.9693644,
        "longitude": 38.7402176
      },
      "category": "Hotels",
      "description": "",
      "opening_hours": "",
      "contact": {
        "phone": "",
        "email": ""
      }
    },
    {
      "name": "Waberi Hotel",
      "coordinates": {
        "latitude": 8.9932127,
        "longitude": 38.8083157
      },
      "category": "Hotels",
      "description": "",
      "opening_hours": "",
      "contact": {
        "phone": "",
        "email": ""
      }
    },
    {
      "name": "kiki",
      "coordinates": {
        "latitude": 8.9653381,
        "longitude": 38.7271415
      },
      "category": "Hotels",
      "description": "",
      "opening_hours": "",
      "contact": {
        "phone": "",
        "email": ""
      }
    },
    {
      "name": "Yidnekachew   ይድነቃቸው",
      "coordinates": {
        "latitude": 8.9565861,
        "longitude": 38.7184625
      },
      "category": "Hotels",
      "description": "",
      "opening_hours": "",
      "contact": {
        "phone": "",
        "email": ""
      }
    },
    {
      "name": "Ropac Sisay    ሮፓክ ሲሳይ",
      "coordinates": {
        "latitude": 9.0702961,
        "longitude": 38.8901767
      },
      "category": "Hotels",
      "description": "",
      "opening_hours": "",
      "contact": {
        "phone": "",
        "email": ""
      }
    },
    {
      "name": "አንተነህ ቤት      Anteneh home",
      "coordinates": {
        "latitude": 9.0157913,
        "longitude": 38.8343059
      },
      "category": "Hotels",
      "description": "",
      "opening_hours": "",
      "contact": {
        "phone": "",
        "email": ""
      }
    },
    {
      "name": "ሲሳይ ሮፓክ  Sisay Ropack",
      "coordinates": {
        "latitude": 9.0702086,
        "longitude": 38.8902895
      },
      "category": "Hotels",
      "description": "",
      "opening_hours": "",
      "contact": {
        "phone": "",
        "email": ""
      }
    },
    {
      "name": "Etaferaw shirobet    እታፈራው ሽሮቤት",
      "coordinates": {
        "latitude": 9.0152486,
        "longitude": 38.8524315
      },
      "category": "Hotels",
      "description": "",
      "opening_hours": "Mo-Su 09:00-18:00",
      "contact": {
        "phone": "+251911093868",
        "email": ""
      }
    },
    {
      "name": "አበበ   Abebe",
      "coordinates": {
        "latitude": 9.0459649,
        "longitude": 38.8560553
      },
      "category": "Hotels",
      "description": "",
      "opening_hours": "",
      "contact": {
        "phone": "",
        "email": ""
      }
    },
    {
      "name": "አንተነህ ቤት         Anteneh House",
      "coordinates": {
        "latitude": 9.0157347,
        "longitude": 38.8343545
      },
      "category": "Hotels",
      "description": "",
      "opening_hours": "",
      "contact": {
        "phone": "",
        "email": ""
      }
    },
    {
      "name": "Anteneh House",
      "coordinates": {
        "latitude": 9.0157086,
        "longitude": 38.8343555
      },
      "category": "Hotels",
      "description": "",
      "opening_hours": "",
      "contact": {
        "phone": "",
        "email": ""
      }
    },
    {
      "name": "Enda kwaja",
      "coordinates": {
        "latitude": 9.0296764,
        "longitude": 38.7471761
      },
      "category": "Hotels",
      "description": "",
      "opening_hours": "24/7",
      "contact": {
        "phone": "002519111553915",
        "email": "aselamadem12@gmail.con"
      }
    },
    {
      "name": "Riverside Apartments",
      "coordinates": {
        "latitude": 8.9863904,
        "longitude": 38.772805
      },
      "category": "Hotels",
      "description": "",
      "opening_hours": "",
      "contact": {
        "phone": "",
        "email": ""
      }
    },
    {
      "name": "Anteneh's home  የአንተነህ ቤት",
      "coordinates": {
        "latitude": 9.0157568,
        "longitude": 38.8343613
      },
      "category": "Hotels",
      "description": "",
      "opening_hours": "",
      "contact": {
        "phone": "",
        "email": ""
      }
    },
    {
      "name": "Hilina Tadesse's Home  የህሊና ቤት",
      "coordinates": {
        "latitude": 8.9874996,
        "longitude": 38.8548038
      },
      "category": "Hotels",
      "description": "",
      "opening_hours": "",
      "contact": {
        "phone": "",
        "email": ""
      }
    },
    {
      "name": "Addis Bright Guesthouse",
      "coordinates": {
        "latitude": 9.012777,
        "longitude": 38.7844353
      },
      "category": "Hotels",
      "description": "",
      "opening_hours": "24/7",
      "contact": {
        "phone": "+251116673029",
        "email": "addisbrightguesthouse@gmail.com"
      }
    },
    {
      "name": "wossen's house",
      "coordinates": {
        "latitude": 9.0328383,
        "longitude": 38.7706284
      },
      "category": "Hotels",
      "description": "",
      "opening_hours": "",
      "contact": {
        "phone": "",
        "email": ""
      }
    },
    {
      "name": "Tsion",
      "coordinates": {
        "latitude": 9.0654246,
        "longitude": 38.7323798
      },
      "category": "Hotels",
      "description": "",
      "opening_hours": "",
      "contact": {
        "phone": "",
        "email": ""
      }
    },
    {
      "name": "Trinity Hotel",
      "coordinates": {
        "latitude": 8.9984845,
        "longitude": 38.7868635
      },
      "category": "Hotels",
      "description": "",
      "opening_hours": "",
      "contact": {
        "phone": "",
        "email": ""
      }
    },
    {
      "name": "Mubarak one",
      "coordinates": {
        "latitude": 8.9834205,
        "longitude": 38.7742618
      },
      "category": "Hotels",
      "description": "",
      "opening_hours": "",
      "contact": {
        "phone": "",
        "email": ""
      }
    },
    {
      "name": "Govani Hotel",
      "coordinates": {
        "latitude": 9.0171576,
        "longitude": 38.7911722
      },
      "category": "Hotels",
      "description": "",
      "opening_hours": "",
      "contact": {
        "phone": "",
        "email": ""
      }
    },
    {
      "name": "bluesky Hotel",
      "coordinates": {
        "latitude": 9.0069262,
        "longitude": 38.7980852
      },
      "category": "Hotels",
      "description": "",
      "opening_hours": "",
      "contact": {
        "phone": "",
        "email": ""
      }
    },
    {
      "name": "Hilton addis ababa",
      "coordinates": {
        "latitude": 9.0178397,
        "longitude": 38.7649296
      },
      "category": "Hotels",
      "description": "",
      "opening_hours": "",
      "contact": {
        "phone": "",
        "email": ""
      }
    },
    {
      "name": "Tossa terara Hotel",
      "coordinates": {
        "latitude": 9.0178338,
        "longitude": 38.7680518
      },
      "category": "Hotels",
      "description": "",
      "opening_hours": "",
      "contact": {
        "phone": "",
        "email": ""
      }
    },
    {
      "name": "Elilly International Hotel",
      "coordinates": {
        "latitude": 9.0142532,
        "longitude": 38.7688899
      },
      "category": "Hotels",
      "description": "",
      "opening_hours": "",
      "contact": {
        "phone": "",
        "email": ""
      }
    },
    {
      "name": "Grmanesh",
      "coordinates": {
        "latitude": 8.9968731,
        "longitude": 38.8156964
      },
      "category": "Hotels",
      "description": "",
      "opening_hours": "",
      "contact": {
        "phone": "",
        "email": ""
      }
    },
    {
      "name": "Nigussie Dimamu  ንጉሴ ድማሙ",
      "coordinates": {
        "latitude": 9.0434678,
        "longitude": 38.8436859
      },
      "category": "Hotels",
      "description": "",
      "opening_hours": "",
      "contact": {
        "phone": "",
        "email": ""
      }
    },
    {
      "name": "Worknesh Fanta ወርቅነሽ ፋንታ",
      "coordinates": {
        "latitude": 9.0619632,
        "longitude": 38.7396481
      },
      "category": "Hotels",
      "description": "",
      "opening_hours": "",
      "contact": {
        "phone": "",
        "email": ""
      }
    },
    {
      "name": "Extrim hotel",
      "coordinates": {
        "latitude": 9.0279031,
        "longitude": 38.7487415
      },
      "category": "Hotels",
      "description": "",
      "opening_hours": "",
      "contact": {
        "phone": "",
        "email": ""
      }
    },
    {
      "name": "Brana Hotel",
      "coordinates": {
        "latitude": 9.0135384,
        "longitude": 38.7823191
      },
      "category": "Hotels",
      "description": "",
      "opening_hours": "",
      "contact": {
        "phone": "",
        "email": ""
      }
    },
    {
      "name": "Konjo Guesthouse",
      "coordinates": {
        "latitude": 9.0205412,
        "longitude": 38.793855
      },
      "category": "Hotels",
      "description": "",
      "opening_hours": "24/7",
      "contact": {
        "phone": "251928670515",
        "email": "betalounge@gmail.com"
      }
    },
    {
      "name": "Yoni’s house",
      "coordinates": {
        "latitude": 8.9934675,
        "longitude": 38.8052576
      },
      "category": "Hotels",
      "description": "",
      "opening_hours": "",
      "contact": {
        "phone": "",
        "email": ""
      }
    },
    {
      "name": "Tigist Teferi ትዕግስት ተፈሪ",
      "coordinates": {
        "latitude": 9.0157511,
        "longitude": 38.8343735
      },
      "category": "Hotels",
      "description": "",
      "opening_hours": "",
      "contact": {
        "phone": "0116457888",
        "email": ""
      }
    },
    {
      "name": "Andi",
      "coordinates": {
        "latitude": 8.9624565,
        "longitude": 38.7285542
      },
      "category": "Hotels",
      "description": "",
      "opening_hours": "",
      "contact": {
        "phone": "",
        "email": ""
      }
    },
    {
      "name": "My home",
      "coordinates": {
        "latitude": 8.9937574,
        "longitude": 38.8376375
      },
      "category": "Hotels",
      "description": "",
      "opening_hours": "",
      "contact": {
        "phone": "",
        "email": ""
      }
    },
    {
      "name": "Fikre kunspanga",
      "coordinates": {
        "latitude": 8.9571408,
        "longitude": 38.7130017
      },
      "category": "Hotels",
      "description": "",
      "opening_hours": "",
      "contact": {
        "phone": "",
        "email": ""
      }
    },
    {
      "name": "ሰላምሰው  Selamsew's home",
      "coordinates": {
        "latitude": 9.0164813,
        "longitude": 38.8458547
      },
      "category": "Hotels",
      "description": "",
      "opening_hours": "",
      "contact": {
        "phone": "",
        "email": ""
      }
    },
    {
      "name": "Tedi home ቴዎድሮስ ፀጋዬ",
      "coordinates": {
        "latitude": 8.963651,
        "longitude": 38.7129684
      },
      "category": "Hotels",
      "description": "",
      "opening_hours": "",
      "contact": {
        "phone": "",
        "email": ""
      }
    },
    {
      "name": "nah bro",
      "coordinates": {
        "latitude": 9.0026242,
        "longitude": 38.8122475
      },
      "category": "Hotels",
      "description": "",
      "opening_hours": "",
      "contact": {
        "phone": "",
        "email": ""
      }
    },
    {
      "name": "Mani home ማንኩልህ",
      "coordinates": {
        "latitude": 9.0829753,
        "longitude": 38.8837924
      },
      "category": "Hotels",
      "description": "",
      "opening_hours": "",
      "contact": {
        "phone": "",
        "email": ""
      }
    },
    {
      "name": "ደረጀ መንግስቱ  Derege Mengstu",
      "coordinates": {
        "latitude": 8.9975183,
        "longitude": 38.84218
      },
      "category": "Hotels",
      "description": "",
      "opening_hours": "",
      "contact": {
        "phone": "",
        "email": ""
      }
    },
    {
      "name": "Demissie zewde's home ደምሴ",
      "coordinates": {
        "latitude": 9.0473483,
        "longitude": 38.8548267
      },
      "category": "Hotels",
      "description": "",
      "opening_hours": "",
      "contact": {
        "phone": "+2519254628",
        "email": ""
      }
    },
    {
      "name": "መአዛ  Meaza Cafe",
      "coordinates": {
        "latitude": 9.0039517,
        "longitude": 38.75608
      },
      "category": "Hotels",
      "description": "",
      "opening_hours": "",
      "contact": {
        "phone": "",
        "email": ""
      }
    },
    {
      "name": "Etaba bet እታባ ቤት",
      "coordinates": {
        "latitude": 8.9925009,
        "longitude": 38.7701396
      },
      "category": "Hotels",
      "description": "",
      "opening_hours": "",
      "contact": {
        "phone": "",
        "email": ""
      }
    },
    {
      "name": "CCD መግቢያ",
      "coordinates": {
        "latitude": 9.0722753,
        "longitude": 38.8947506
      },
      "category": "Hotels",
      "description": "",
      "opening_hours": "",
      "contact": {
        "phone": "",
        "email": ""
      }
    },
    {
      "name": "Meaza cafe መአዛ ካፌ",
      "coordinates": {
        "latitude": 9.00395,
        "longitude": 38.7559791
      },
      "category": "Hotels",
      "description": "",
      "opening_hours": "",
      "contact": {
        "phone": "",
        "email": ""
      }
    },
    {
      "name": "Demissie zewde ደምሴ ዘዉዴ",
      "coordinates": {
        "latitude": 9.0461072,
        "longitude": 38.8547994
      },
      "category": "Hotels",
      "description": "",
      "opening_hours": "",
      "contact": {
        "phone": "+251911254628",
        "email": ""
      }
    },
    {
      "name": "Etaba እታባ",
      "coordinates": {
        "latitude": 8.992936,
        "longitude": 38.7704126
      },
      "category": "Hotels",
      "description": "",
      "opening_hours": "",
      "contact": {
        "phone": "",
        "email": ""
      }
    },
    {
      "name": "Tegen Hotel",
      "coordinates": {
        "latitude": 9.0290323,
        "longitude": 38.7918167
      },
      "category": "Hotels",
      "description": "",
      "opening_hours": "",
      "contact": {
        "phone": "+251116182870",
        "email": "info@tegenhotel.com"
      }
    },
    {
      "name": "The Hive Guest House",
      "coordinates": {
        "latitude": 8.9959285,
        "longitude": 38.7739065
      },
      "category": "Hotels",
      "description": "",
      "opening_hours": "",
      "contact": {
        "phone": "",
        "email": ""
      }
    },
    {
      "name": "English",
      "coordinates": {
        "latitude": 9.007654,
        "longitude": 38.788995
      },
      "category": "Hotels",
      "description": "",
      "opening_hours": "",
      "contact": {
        "phone": "",
        "email": ""
      }
    },
    {
      "name": "Blue Cave",
      "coordinates": {
        "latitude": 9.0171441,
        "longitude": 38.7818296
      },
      "category": "Hotels",
      "description": "",
      "opening_hours": "",
      "contact": {
        "phone": "",
        "email": ""
      }
    },
    {
      "name": "ZMAMA HOTEL",
      "coordinates": {
        "latitude": 9.0078687,
        "longitude": 38.7845397
      },
      "category": "Hotels",
      "description": "",
      "opening_hours": "",
      "contact": {
        "phone": "",
        "email": ""
      }
    },
    {
      "name": "Aaran Hotel",
      "coordinates": {
        "latitude": 8.9833269,
        "longitude": 38.7761841
      },
      "category": "Hotels",
      "description": "",
      "opening_hours": "",
      "contact": {
        "phone": "+251116392240",
        "email": ""
      }
    },
    {
      "name": "Toronto",
      "coordinates": {
        "latitude": 9.0099541,
        "longitude": 38.7800801
      },
      "category": "Hotels",
      "description": "Behind Nyala Protection House",
      "opening_hours": "",
      "contact": {
        "phone": "+251116622742 / 43",
        "email": ""
      }
    },
    {
      "name": "Faafen Hote",
      "coordinates": {
        "latitude": 8.9834387,
        "longitude": 38.7752732
      },
      "category": "Hotels",
      "description": "",
      "opening_hours": "",
      "contact": {
        "phone": "",
        "email": ""
      }
    },
    {
      "name": "Faafen Hotel",
      "coordinates": {
        "latitude": 8.9833734,
        "longitude": 38.7753444
      },
      "category": "Hotels",
      "description": "",
      "opening_hours": "",
      "contact": {
        "phone": "",
        "email": ""
      }
    },
    {
      "name": "Ya Grand Pension",
      "coordinates": {
        "latitude": 9.0089032,
        "longitude": 38.782418
      },
      "category": "Hotels",
      "description": "",
      "opening_hours": "",
      "contact": {
        "phone": "",
        "email": ""
      }
    },
    {
      "name": "Alamudin guest house",
      "coordinates": {
        "latitude": 9.0154943,
        "longitude": 38.7185286
      },
      "category": "Hotels",
      "description": "",
      "opening_hours": "",
      "contact": {
        "phone": "",
        "email": ""
      }
    },
    {
      "name": "Tiga Hotel",
      "coordinates": {
        "latitude": 8.9869612,
        "longitude": 38.7874377
      },
      "category": "Hotels",
      "description": "",
      "opening_hours": "",
      "contact": {
        "phone": "",
        "email": ""
      }
    },
    {
      "name": "Yahoo Pension",
      "coordinates": {
        "latitude": 9.0121641,
        "longitude": 38.7803544
      },
      "category": "Hotels",
      "description": "",
      "opening_hours": "",
      "contact": {
        "phone": "",
        "email": ""
      }
    },
    {
      "name": "Tsehay Pension",
      "coordinates": {
        "latitude": 9.0122246,
        "longitude": 38.7844779
      },
      "category": "Hotels",
      "description": "",
      "opening_hours": "",
      "contact": {
        "phone": "",
        "email": ""
      }
    },
    {
      "name": "Tsehay Hotel",
      "coordinates": {
        "latitude": 9.0121533,
        "longitude": 38.784486
      },
      "category": "Hotels",
      "description": "",
      "opening_hours": "",
      "contact": {
        "phone": "0913054563",
        "email": ""
      }
    },
    {
      "name": "Getachew Worku  ጌታቸው ወርቁ",
      "coordinates": {
        "latitude": 9.0311563,
        "longitude": 38.7999866
      },
      "category": "Hotels",
      "description": "",
      "opening_hours": "",
      "contact": {
        "phone": "",
        "email": ""
      }
    },
    {
      "name": "Sunspot",
      "coordinates": {
        "latitude": 8.9969797,
        "longitude": 38.7912399
      },
      "category": "Hotels",
      "description": "",
      "opening_hours": "",
      "contact": {
        "phone": "",
        "email": ""
      }
    },
    {
      "name": "BeAleta Hotel Apartment",
      "coordinates": {
        "latitude": 8.9601999,
        "longitude": 38.7651807
      },
      "category": "Hotels",
      "description": "",
      "opening_hours": "24/7",
      "contact": {
        "phone": "+251114708292",
        "email": "bealetahotelapartment@yahoo.com"
      }
    },
    {
      "name": "Olympia Homestay",
      "coordinates": {
        "latitude": 8.9951796,
        "longitude": 38.7685415
      },
      "category": "Hotels",
      "description": "",
      "opening_hours": "24/7",
      "contact": {
        "phone": "+251911470776",
        "email": "gassefa1015@gmail.com"
      }
    },
    {
      "name": "Hamonah Guest House",
      "coordinates": {
        "latitude": 9.0228305,
        "longitude": 38.8430148
      },
      "category": "Hotels",
      "description": "",
      "opening_hours": "",
      "contact": {
        "phone": "+251116670022",
        "email": ""
      }
    },
    {
      "name": "Sofia Kebede  ሶፍያ ከበደ",
      "coordinates": {
        "latitude": 9.0199033,
        "longitude": 38.7941242
      },
      "category": "Hotels",
      "description": "",
      "opening_hours": "",
      "contact": {
        "phone": "",
        "email": ""
      }
    },
    {
      "name": "Best Western Plus Addis Ababa",
      "coordinates": {
        "latitude": 8.9968941,
        "longitude": 38.7859708
      },
      "category": "Hotels",
      "description": "",
      "opening_hours": "24/7",
      "contact": {
        "phone": "+251116671414",
        "email": "reservations@bwplusaddisababa.com"
      }
    },
    {
      "name": "Lilu House",
      "coordinates": {
        "latitude": 9.0130952,
        "longitude": 38.77997
      },
      "category": "Hotels",
      "description": "",
      "opening_hours": "24/7",
      "contact": {
        "phone": "+251911206860",
        "email": ""
      }
    },
    {
      "name": "Hayat Penision",
      "coordinates": {
        "latitude": 9.0359855,
        "longitude": 38.7426706
      },
      "category": "Hotels",
      "description": "",
      "opening_hours": "",
      "contact": {
        "phone": "",
        "email": ""
      }
    },
    {
      "name": "አፋረንሲስ አለም አቀፍ ሆቴል Afarensis international hotel",
      "coordinates": {
        "latitude": 9.0174187,
        "longitude": 38.8014385
      },
      "category": "Hotels",
      "description": "",
      "opening_hours": "24/7",
      "contact": {
        "phone": "0116629700",
        "email": ""
      }
    },
    {
      "name": "Adea Hotel and Restaurant",
      "coordinates": {
        "latitude": 8.9992878,
        "longitude": 38.7571321
      },
      "category": "Hotels",
      "description": "",
      "opening_hours": "",
      "contact": {
        "phone": "",
        "email": ""
      }
    },
    {
      "name": "Nazra Hotel",
      "coordinates": {
        "latitude": 8.9932116,
        "longitude": 38.7662125
      },
      "category": "Hotels",
      "description": "",
      "opening_hours": "",
      "contact": {
        "phone": "",
        "email": ""
      }
    },
    {
      "name": "Vamos",
      "coordinates": {
        "latitude": 9.0154318,
        "longitude": 38.7372659
      },
      "category": "Hotels",
      "description": "",
      "opening_hours": "",
      "contact": {
        "phone": "",
        "email": ""
      }
    },
    {
      "name": "Bole tourist  ቦሌ ቱሪስት",
      "coordinates": {
        "latitude": 9.0147069,
        "longitude": 38.797504
      },
      "category": "Hotels",
      "description": "",
      "opening_hours": "",
      "contact": {
        "phone": "",
        "email": ""
      }
    },
    {
      "name": "Home",
      "coordinates": {
        "latitude": 8.9650045,
        "longitude": 38.7666876
      },
      "category": "Hotels",
      "description": "",
      "opening_hours": "",
      "contact": {
        "phone": "0114401933",
        "email": ""
      }
    },
    {
      "name": "Alula 2",
      "coordinates": {
        "latitude": 9.0075757,
        "longitude": 38.7834031
      },
      "category": "Hotels",
      "description": "",
      "opening_hours": "",
      "contact": {
        "phone": "0911536616",
        "email": ""
      }
    },
    {
      "name": "Poli Lotus closed comunitiy",
      "coordinates": {
        "latitude": 9.0229487,
        "longitude": 38.8528592
      },
      "category": "Hotels",
      "description": "",
      "opening_hours": "",
      "contact": {
        "phone": "",
        "email": ""
      }
    },
    {
      "name": "Ye-afoli Hotel",
      "coordinates": {
        "latitude": 8.9881923,
        "longitude": 38.7799452
      },
      "category": "Hotels",
      "description": "",
      "opening_hours": "",
      "contact": {
        "phone": "",
        "email": ""
      }
    },
    {
      "name": "Beteseb hotel",
      "coordinates": {
        "latitude": 9.0310696,
        "longitude": 38.7347489
      },
      "category": "Hotels",
      "description": "",
      "opening_hours": "",
      "contact": {
        "phone": "",
        "email": ""
      }
    },
    {
      "name": "Atlas international hotel",
      "coordinates": {
        "latitude": 9.0036222,
        "longitude": 38.7805991
      },
      "category": "Hotels",
      "description": "",
      "opening_hours": "",
      "contact": {
        "phone": "",
        "email": ""
      }
    },
    {
      "name": "Watot Bar, Restaurant and Hotel",
      "coordinates": {
        "latitude": 8.9482199,
        "longitude": 38.7320222
      },
      "category": "Hotels",
      "description": "",
      "opening_hours": "",
      "contact": {
        "phone": "",
        "email": ""
      }
    },
    {
      "name": "Lele pension",
      "coordinates": {
        "latitude": 9.0466195,
        "longitude": 38.7470306
      },
      "category": "Hotels",
      "description": "",
      "opening_hours": "",
      "contact": {
        "phone": "",
        "email": ""
      }
    },
    {
      "name": "A As pension",
      "coordinates": {
        "latitude": 9.0464405,
        "longitude": 38.7473561
      },
      "category": "Hotels",
      "description": "",
      "opening_hours": "",
      "contact": {
        "phone": "",
        "email": ""
      }
    },
    {
      "name": "ባርክልኝ ክርስቶፎል",
      "coordinates": {
        "latitude": 9.0119742,
        "longitude": 38.8266215
      },
      "category": "Hotels",
      "description": "",
      "opening_hours": "",
      "contact": {
        "phone": "",
        "email": ""
      }
    },
    {
      "name": "MY FAMILY HOME",
      "coordinates": {
        "latitude": 8.9581579,
        "longitude": 38.7687449
      },
      "category": "Hotels",
      "description": "",
      "opening_hours": "",
      "contact": {
        "phone": "0114405549",
        "email": ""
      }
    },
    {
      "name": "Archi Hotel",
      "coordinates": {
        "latitude": 9.0242428,
        "longitude": 38.825438
      },
      "category": "Hotels",
      "description": "",
      "opening_hours": "",
      "contact": {
        "phone": "",
        "email": ""
      }
    },
    {
      "name": "Haven Hotel",
      "coordinates": {
        "latitude": 9.0155626,
        "longitude": 38.7359101
      },
      "category": "Hotels",
      "description": "",
      "opening_hours": "",
      "contact": {
        "phone": "",
        "email": ""
      }
    },
    {
      "name": "Adonis grand Father",
      "coordinates": {
        "latitude": 8.9889826,
        "longitude": 38.7300932
      },
      "category": "Hotels",
      "description": "",
      "opening_hours": "",
      "contact": {
        "phone": "",
        "email": ""
      }
    },
    {
      "name": "ETT Guesthouse",
      "coordinates": {
        "latitude": 9.0154207,
        "longitude": 38.7687867
      },
      "category": "Hotels",
      "description": "",
      "opening_hours": "",
      "contact": {
        "phone": "",
        "email": ""
      }
    },
    {
      "name": "M.W. Hotel",
      "coordinates": {
        "latitude": 8.9983253,
        "longitude": 38.7867626
      },
      "category": "Hotels",
      "description": "",
      "opening_hours": "",
      "contact": {
        "phone": "",
        "email": ""
      }
    },
    {
      "name": "MZ Guest House",
      "coordinates": {
        "latitude": 9.0064477,
        "longitude": 38.7693452
      },
      "category": "Hotels",
      "description": "",
      "opening_hours": "",
      "contact": {
        "phone": "",
        "email": ""
      }
    },
    {
      "name": "Edna Addis",
      "coordinates": {
        "latitude": 9.0200005,
        "longitude": 38.7700005
      },
      "category": "Hotels",
      "description": "",
      "opening_hours": "",
      "contact": {
        "phone": "",
        "email": ""
      }
    },
    {
      "name": "Abem Hotel",
      "coordinates": {
        "latitude": 9.0360621,
        "longitude": 38.8542501
      },
      "category": "Hotels",
      "description": "",
      "opening_hours": "",
      "contact": {
        "phone": "",
        "email": ""
      }
    },
    {
      "name": "Mena Hotel",
      "coordinates": {
        "latitude": 8.9850866,
        "longitude": 38.726461
      },
      "category": "Hotels",
      "description": "",
      "opening_hours": "",
      "contact": {
        "phone": "",
        "email": ""
      }
    },
    {
      "name": "Dessie Hotel",
      "coordinates": {
        "latitude": 9.0071351,
        "longitude": 38.73429
      },
      "category": "Hotels",
      "description": "",
      "opening_hours": "",
      "contact": {
        "phone": "",
        "email": ""
      }
    },
    {
      "name": "lobelia",
      "coordinates": {
        "latitude": 8.9926967,
        "longitude": 38.7924073
      },
      "category": "Hotels",
      "description": "",
      "opening_hours": "",
      "contact": {
        "phone": "",
        "email": ""
      }
    },
    {
      "name": "Blue nile hotel",
      "coordinates": {
        "latitude": 9.0354681,
        "longitude": 38.7550621
      },
      "category": "Hotels",
      "description": "",
      "opening_hours": "",
      "contact": {
        "phone": "",
        "email": ""
      }
    },
    {
      "name": "Avola Hotel",
      "coordinates": {
        "latitude": 8.9587163,
        "longitude": 38.7072667
      },
      "category": "Hotels",
      "description": "",
      "opening_hours": "",
      "contact": {
        "phone": "",
        "email": ""
      }
    },
    {
      "name": "Bridge Hotel",
      "coordinates": {
        "latitude": 8.9574274,
        "longitude": 38.7658288
      },
      "category": "Hotels",
      "description": "",
      "opening_hours": "",
      "contact": {
        "phone": "",
        "email": ""
      }
    },
    {
      "name": "Liya Hotel",
      "coordinates": {
        "latitude": 8.9574115,
        "longitude": 38.7656048
      },
      "category": "Hotels",
      "description": "",
      "opening_hours": "",
      "contact": {
        "phone": "",
        "email": ""
      }
    },
    {
      "name": "Sonz Hotel",
      "coordinates": {
        "latitude": 8.9578195,
        "longitude": 38.7657161
      },
      "category": "Hotels",
      "description": "",
      "opening_hours": "",
      "contact": {
        "phone": "",
        "email": ""
      }
    },
    {
      "name": "Benazo Hotel",
      "coordinates": {
        "latitude": 8.9489515,
        "longitude": 38.7211043
      },
      "category": "Hotels",
      "description": "",
      "opening_hours": "",
      "contact": {
        "phone": "",
        "email": ""
      }
    },
    {
      "name": "Yohannis Hotel",
      "coordinates": {
        "latitude": 8.9685021,
        "longitude": 38.721229
      },
      "category": "Hotels",
      "description": "",
      "opening_hours": "",
      "contact": {
        "phone": "",
        "email": ""
      }
    },
    {
      "name": "Yetsion Hotel",
      "coordinates": {
        "latitude": 8.9883695,
        "longitude": 38.7594223
      },
      "category": "Hotels",
      "description": "",
      "opening_hours": "",
      "contact": {
        "phone": "",
        "email": ""
      }
    },
    {
      "name": "Mosaic Hotel",
      "coordinates": {
        "latitude": 8.9959821,
        "longitude": 38.7847915
      },
      "category": "Hotels",
      "description": "",
      "opening_hours": "",
      "contact": {
        "phone": "",
        "email": ""
      }
    },
    {
      "name": "Adams Hotel",
      "coordinates": {
        "latitude": 8.9977147,
        "longitude": 38.7546842
      },
      "category": "Hotels",
      "description": "",
      "opening_hours": "",
      "contact": {
        "phone": "",
        "email": ""
      }
    },
    {
      "name": "Teferi mimi",
      "coordinates": {
        "latitude": 9.018561,
        "longitude": 38.8427775
      },
      "category": "Hotels",
      "description": "",
      "opening_hours": "",
      "contact": {
        "phone": "",
        "email": ""
      }
    },
    {
      "name": "White House Hotel",
      "coordinates": {
        "latitude": 8.9928468,
        "longitude": 38.7940558
      },
      "category": "Hotels",
      "description": "",
      "opening_hours": "",
      "contact": {
        "phone": "",
        "email": ""
      }
    },
    {
      "name": "Mado Hotel",
      "coordinates": {
        "latitude": 9.0004823,
        "longitude": 38.7831031
      },
      "category": "Hotels",
      "description": "",
      "opening_hours": "",
      "contact": {
        "phone": "",
        "email": ""
      }
    },
    {
      "name": "Ugbaad Hotel",
      "coordinates": {
        "latitude": 8.9819313,
        "longitude": 38.7768494
      },
      "category": "Hotels",
      "description": "",
      "opening_hours": "",
      "contact": {
        "phone": "",
        "email": ""
      }
    },
    {
      "name": "Broadway Hotel",
      "coordinates": {
        "latitude": 8.9828021,
        "longitude": 38.7788211
      },
      "category": "Hotels",
      "description": "",
      "opening_hours": "",
      "contact": {
        "phone": "",
        "email": ""
      }
    },
    {
      "name": "Abyssinia Guest House",
      "coordinates": {
        "latitude": 9.0063813,
        "longitude": 38.7823365
      },
      "category": "Hotels",
      "description": "",
      "opening_hours": "",
      "contact": {
        "phone": "+251911561676",
        "email": ""
      }
    },
    {
      "name": "Meheretabe Hotel",
      "coordinates": {
        "latitude": 9.037883,
        "longitude": 38.8519936
      },
      "category": "Hotels",
      "description": "",
      "opening_hours": "",
      "contact": {
        "phone": "",
        "email": ""
      }
    },
    {
      "name": "Abem Hotel",
      "coordinates": {
        "latitude": 9.0361164,
        "longitude": 38.8541893
      },
      "category": "Hotels",
      "description": "",
      "opening_hours": "",
      "contact": {
        "phone": "",
        "email": ""
      }
    },
    {
      "name": "Bereket Bar and Restaurant",
      "coordinates": {
        "latitude": 9.0388234,
        "longitude": 38.8497681
      },
      "category": "Hotels",
      "description": "",
      "opening_hours": "",
      "contact": {
        "phone": "",
        "email": ""
      }
    },
    {
      "name": "Ark Hotel",
      "coordinates": {
        "latitude": 9.0042862,
        "longitude": 38.7974128
      },
      "category": "Hotels",
      "description": "",
      "opening_hours": "",
      "contact": {
        "phone": "",
        "email": ""
      }
    },
    {
      "name": "TZ Hotel",
      "coordinates": {
        "latitude": 8.9861715,
        "longitude": 38.7749381
      },
      "category": "Hotels",
      "description": "",
      "opening_hours": "",
      "contact": {
        "phone": "",
        "email": ""
      }
    },
    {
      "name": "Tulip Inn",
      "coordinates": {
        "latitude": 8.9907711,
        "longitude": 38.7657389
      },
      "category": "Hotels",
      "description": "",
      "opening_hours": "Mo-Sa 08:00-18:00",
      "contact": {
        "phone": "",
        "email": ""
      }
    },
    {
      "name": "Kegnew Shaleka Hotel",
      "coordinates": {
        "latitude": 9.0317607,
        "longitude": 38.7372471
      },
      "category": "Hotels",
      "description": "",
      "opening_hours": "Mo-Sa 08:00-18:00",
      "contact": {
        "phone": "",
        "email": ""
      }
    },
    {
      "name": "Tedros Belay International Hotel",
      "coordinates": {
        "latitude": 9.0215865,
        "longitude": 38.8548505
      },
      "category": "Hotels",
      "description": "",
      "opening_hours": "",
      "contact": {
        "phone": "",
        "email": ""
      }
    },
    {
      "name": "Daruselam guesthouse",
      "coordinates": {
        "latitude": 9.0341306,
        "longitude": 38.7341509
      },
      "category": "Hotels",
      "description": "",
      "opening_hours": "",
      "contact": {
        "phone": "",
        "email": ""
      }
    },
    {
      "name": "Shalla Guesthouse",
      "coordinates": {
        "latitude": 9.0013915,
        "longitude": 38.7841399
      },
      "category": "Hotels",
      "description": "",
      "opening_hours": "",
      "contact": {
        "phone": "",
        "email": ""
      }
    },
    {
      "name": "The Container",
      "coordinates": {
        "latitude": 8.9937545,
        "longitude": 38.7843084
      },
      "category": "Hotels",
      "description": "",
      "opening_hours": "",
      "contact": {
        "phone": "",
        "email": ""
      }
    },
    {
      "name": "Abyssinia Guest House",
      "coordinates": {
        "latitude": 9.0061209,
        "longitude": 38.7826131
      },
      "category": "Hotels",
      "description": "",
      "opening_hours": "24/7",
      "contact": {
        "phone": "+251963147474",
        "email": "hotabyssinia711@gmail.com"
      }
    },
    {
      "name": "Natna Hotel",
      "coordinates": {
        "latitude": 9.0018525,
        "longitude": 38.7882275
      },
      "category": "Hotels",
      "description": "",
      "opening_hours": "",
      "contact": {
        "phone": "",
        "email": ""
      }
    },
    {
      "name": "Nigus Kitfo and Fish Hotel",
      "coordinates": {
        "latitude": 9.0345324,
        "longitude": 38.7553608
      },
      "category": "Hotels",
      "description": "",
      "opening_hours": "",
      "contact": {
        "phone": "",
        "email": ""
      }
    },
    {
      "name": "Natane Hotel",
      "coordinates": {
        "latitude": 9.0552894,
        "longitude": 38.7196084
      },
      "category": "Hotels",
      "description": "",
      "opening_hours": "",
      "contact": {
        "phone": "",
        "email": ""
      }
    },
    {
      "name": "Tewdoros Belay International Hotel",
      "coordinates": {
        "latitude": 9.0212227,
        "longitude": 38.8551206
      },
      "category": "Hotels",
      "description": "",
      "opening_hours": "24/7",
      "contact": {
        "phone": "+251 116680145",
        "email": "tewdorosbelay.inthotel@gmail.com"
      }
    },
    {
      "name": "Darasalaam Hotel",
      "coordinates": {
        "latitude": 8.9835714,
        "longitude": 38.7752605
      },
      "category": "Hotels",
      "description": "",
      "opening_hours": "",
      "contact": {
        "phone": "",
        "email": ""
      }
    },
    {
      "name": "Ambassador Hotel",
      "coordinates": {
        "latitude": 8.9918957,
        "longitude": 38.7884052
      },
      "category": "Hotels",
      "description": "",
      "opening_hours": "",
      "contact": {
        "phone": "+251 116188284",
        "email": ""
      }
    },
    {
      "name": "Nati Pension",
      "coordinates": {
        "latitude": 8.9509797,
        "longitude": 38.7315722
      },
      "category": "Hotels",
      "description": "",
      "opening_hours": "",
      "contact": {
        "phone": "",
        "email": ""
      }
    },
    {
      "name": "Mexico Hotel",
      "coordinates": {
        "latitude": 9.0085096,
        "longitude": 38.7435929
      },
      "category": "Hotels",
      "description": "",
      "opening_hours": "",
      "contact": {
        "phone": "",
        "email": ""
      }
    },
    {
      "name": "Nanaya Guesthouse",
      "coordinates": {
        "latitude": 9.0124639,
        "longitude": 38.7979357
      },
      "category": "Hotels",
      "description": "",
      "opening_hours": "",
      "contact": {
        "phone": "",
        "email": ""
      }
    },
    {
      "name": "Milano Pension",
      "coordinates": {
        "latitude": 9.0128125,
        "longitude": 38.7843141
      },
      "category": "Hotels",
      "description": "",
      "opening_hours": "",
      "contact": {
        "phone": "",
        "email": ""
      }
    },
    {
      "name": "Adites Guesthouse",
      "coordinates": {
        "latitude": 9.0038756,
        "longitude": 38.7969616
      },
      "category": "Hotels",
      "description": "",
      "opening_hours": "",
      "contact": {
        "phone": "",
        "email": ""
      }
    },
    {
      "name": "Emebet Hotel",
      "coordinates": {
        "latitude": 9.0626626,
        "longitude": 38.7311951
      },
      "category": "Hotels",
      "description": "",
      "opening_hours": "",
      "contact": {
        "phone": "",
        "email": ""
      }
    },
    {
      "name": "Magnolia Hotel",
      "coordinates": {
        "latitude": 9.0005878,
        "longitude": 38.7804028
      },
      "category": "Hotels",
      "description": "",
      "opening_hours": "",
      "contact": {
        "phone": "",
        "email": ""
      }
    },
    {
      "name": "Balderas Hotel",
      "coordinates": {
        "latitude": 9.0283852,
        "longitude": 38.784441
      },
      "category": "Hotels",
      "description": "",
      "opening_hours": "",
      "contact": {
        "phone": "",
        "email": ""
      }
    },
    {
      "name": "Afro Legacy Hotel",
      "coordinates": {
        "latitude": 9.0002722,
        "longitude": 38.7388927
      },
      "category": "Hotels",
      "description": "",
      "opening_hours": "",
      "contact": {
        "phone": "",
        "email": ""
      }
    },
    {
      "name": "Desta Pension",
      "coordinates": {
        "latitude": 9.0091008,
        "longitude": 38.7825578
      },
      "category": "Hotels",
      "description": "",
      "opening_hours": "",
      "contact": {
        "phone": "",
        "email": ""
      }
    },
    {
      "name": "Winner Pension",
      "coordinates": {
        "latitude": 9.0078979,
        "longitude": 38.7829843
      },
      "category": "Hotels",
      "description": "",
      "opening_hours": "",
      "contact": {
        "phone": "",
        "email": ""
      }
    },
    {
      "name": "Kebron Guest House",
      "coordinates": {
        "latitude": 8.9467979,
        "longitude": 38.7415715
      },
      "category": "Hotels",
      "description": "",
      "opening_hours": "",
      "contact": {
        "phone": "",
        "email": ""
      }
    },
    {
      "name": "Addis Guest House and Pension",
      "coordinates": {
        "latitude": 8.9928486,
        "longitude": 38.7652238
      },
      "category": "Hotels",
      "description": "",
      "opening_hours": "",
      "contact": {
        "phone": "",
        "email": ""
      }
    },
    {
      "name": "Kal Guest House",
      "coordinates": {
        "latitude": 9.007297,
        "longitude": 38.786597
      },
      "category": "Hotels",
      "description": "",
      "opening_hours": "",
      "contact": {
        "phone": "",
        "email": ""
      }
    },
    {
      "name": "Milano pension",
      "coordinates": {
        "latitude": 9.0127773,
        "longitude": 38.784298
      },
      "category": "Hotels",
      "description": "",
      "opening_hours": "",
      "contact": {
        "phone": "",
        "email": ""
      }
    },
    {
      "name": "Raya pension",
      "coordinates": {
        "latitude": 9.0208562,
        "longitude": 38.7913037
      },
      "category": "Hotels",
      "description": "",
      "opening_hours": "",
      "contact": {
        "phone": "",
        "email": ""
      }
    },
    {
      "name": "Besha Hotel",
      "coordinates": {
        "latitude": 9.0152758,
        "longitude": 38.7909356
      },
      "category": "Hotels",
      "description": "",
      "opening_hours": "",
      "contact": {
        "phone": "+251912606368",
        "email": ""
      }
    },
    {
      "name": "Bole Skygate Hotel",
      "coordinates": {
        "latitude": 8.9894821,
        "longitude": 38.7946027
      },
      "category": "Hotels",
      "description": "",
      "opening_hours": "",
      "contact": {
        "phone": "",
        "email": ""
      }
    },
    {
      "name": "Dolphin pension",
      "coordinates": {
        "latitude": 9.0143509,
        "longitude": 38.7844024
      },
      "category": "Hotels",
      "description": "",
      "opening_hours": "",
      "contact": {
        "phone": "",
        "email": ""
      }
    },
    {
      "name": "Dolphin pension new",
      "coordinates": {
        "latitude": 9.0123573,
        "longitude": 38.78744
      },
      "category": "Hotels",
      "description": "",
      "opening_hours": "",
      "contact": {
        "phone": "",
        "email": ""
      }
    },
    {
      "name": "Hanom Hotel",
      "coordinates": {
        "latitude": 8.9976356,
        "longitude": 38.7855079
      },
      "category": "Hotels",
      "description": "",
      "opening_hours": "",
      "contact": {
        "phone": "",
        "email": ""
      }
    },
    {
      "name": "Medina edris rent house 1",
      "coordinates": {
        "latitude": 9.0111119,
        "longitude": 38.8146955
      },
      "category": "Hotels",
      "description": "",
      "opening_hours": "",
      "contact": {
        "phone": "",
        "email": ""
      }
    },
    {
      "name": "Hotel Selete",
      "coordinates": {
        "latitude": 8.9962394,
        "longitude": 38.7713007
      },
      "category": "Hotels",
      "description": "",
      "opening_hours": "",
      "contact": {
        "phone": "",
        "email": ""
      }
    },
    {
      "name": "Celeste Hotel",
      "coordinates": {
        "latitude": 8.9945927,
        "longitude": 38.773028
      },
      "category": "Hotels",
      "description": "",
      "opening_hours": "",
      "contact": {
        "phone": "",
        "email": ""
      }
    },
    {
      "name": "Mosy Hotel",
      "coordinates": {
        "latitude": 8.9955771,
        "longitude": 38.7669049
      },
      "category": "Hotels",
      "description": "",
      "opening_hours": "",
      "contact": {
        "phone": "",
        "email": ""
      }
    },
    {
      "name": "La Source Guest House",
      "coordinates": {
        "latitude": 8.9912607,
        "longitude": 38.7664997
      },
      "category": "Hotels",
      "description": "",
      "opening_hours": "",
      "contact": {
        "phone": "",
        "email": ""
      }
    },
    {
      "name": "Sunspot Hotel",
      "coordinates": {
        "latitude": 8.9969713,
        "longitude": 38.7912252
      },
      "category": "Hotels",
      "description": "",
      "opening_hours": "",
      "contact": {
        "phone": "",
        "email": ""
      }
    },
    {
      "name": "Yina Hotel",
      "coordinates": {
        "latitude": 9.0586009,
        "longitude": 38.7416903
      },
      "category": "Hotels",
      "description": "",
      "opening_hours": "",
      "contact": {
        "phone": "",
        "email": ""
      }
    },
    {
      "name": "Mubarak 2",
      "coordinates": {
        "latitude": 8.9825763,
        "longitude": 38.7761392
      },
      "category": "Hotels",
      "description": "",
      "opening_hours": "",
      "contact": {
        "phone": "",
        "email": ""
      }
    },
    {
      "name": "Arsema Hotel",
      "coordinates": {
        "latitude": 8.9362709,
        "longitude": 38.7640425
      },
      "category": "Hotels",
      "description": "",
      "opening_hours": "",
      "contact": {
        "phone": "",
        "email": ""
      }
    },
    {
      "name": "Awraris Hotel (Haya hulet)",
      "coordinates": {
        "latitude": 9.010181,
        "longitude": 38.7880178
      },
      "category": "Hotels",
      "description": "",
      "opening_hours": "24/7",
      "contact": {
        "phone": "",
        "email": ""
      }
    },
    {
      "name": "Jemeà bldg",
      "coordinates": {
        "latitude": 8.9951894,
        "longitude": 38.7666286
      },
      "category": "Hotels",
      "description": "",
      "opening_hours": "",
      "contact": {
        "phone": "",
        "email": ""
      }
    },
    {
      "name": "Bloom Tower - Guest House Apartments",
      "coordinates": {
        "latitude": 9.0161614,
        "longitude": 38.7685054
      },
      "category": "Hotels",
      "description": "",
      "opening_hours": "",
      "contact": {
        "phone": "",
        "email": ""
      }
    },
    {
      "name": "Tulusa Hotel (Pension)",
      "coordinates": {
        "latitude": 8.9485767,
        "longitude": 38.7246234
      },
      "category": "Hotels",
      "description": "",
      "opening_hours": "",
      "contact": {
        "phone": "",
        "email": ""
      }
    },
    {
      "name": "Sabon Hotel",
      "coordinates": {
        "latitude": 8.9992037,
        "longitude": 38.7839589
      },
      "category": "Hotels",
      "description": "",
      "opening_hours": "",
      "contact": {
        "phone": "",
        "email": ""
      }
    },
    {
      "name": "Sabon Hotel",
      "coordinates": {
        "latitude": 8.9997998,
        "longitude": 38.7840093
      },
      "category": "Hotels",
      "description": "",
      "opening_hours": "",
      "contact": {
        "phone": "",
        "email": ""
      }
    },
    {
      "name": "Makiba Hotel",
      "coordinates": {
        "latitude": 9.0159963,
        "longitude": 38.822333
      },
      "category": "Hotels",
      "description": "",
      "opening_hours": "",
      "contact": {
        "phone": "",
        "email": ""
      }
    },
    {
      "name": "Ivory Hotel",
      "coordinates": {
        "latitude": 8.9482995,
        "longitude": 38.7446516
      },
      "category": "Hotels",
      "description": "",
      "opening_hours": "",
      "contact": {
        "phone": "",
        "email": ""
      }
    },
    {
      "name": "Sidama Inn",
      "coordinates": {
        "latitude": 9.0037138,
        "longitude": 38.7796424
      },
      "category": "Hotels",
      "description": "",
      "opening_hours": "",
      "contact": {
        "phone": "",
        "email": ""
      }
    },
    {
      "name": "Hollywood Hotel",
      "coordinates": {
        "latitude": 9.0075977,
        "longitude": 38.7890076
      },
      "category": "Hotels",
      "description": "",
      "opening_hours": "",
      "contact": {
        "phone": "",
        "email": ""
      }
    },
    {
      "name": "Sidra Hotel",
      "coordinates": {
        "latitude": 9.013081,
        "longitude": 38.7963782
      },
      "category": "Hotels",
      "description": "",
      "opening_hours": "",
      "contact": {
        "phone": "",
        "email": ""
      }
    },
    {
      "name": "Berekt marketing house",
      "coordinates": {
        "latitude": 9.066081,
        "longitude": 38.7469826
      },
      "category": "Hotels",
      "description": "",
      "opening_hours": "",
      "contact": {
        "phone": "",
        "email": ""
      }
    },
    {
      "name": "abegaz hotel",
      "coordinates": {
        "latitude": 9.0064365,
        "longitude": 38.7889509
      },
      "category": "Hotels",
      "description": "",
      "opening_hours": "",
      "contact": {
        "phone": "",
        "email": ""
      }
    },
    {
      "name": "Aroma Guest House",
      "coordinates": {
        "latitude": 9.0036783,
        "longitude": 38.8116441
      },
      "category": "Hotels",
      "description": "",
      "opening_hours": "",
      "contact": {
        "phone": "0930333385",
        "email": ""
      }
    },
    {
      "name": "GENET MENAFESHA ENKULAL FABRICA ABEL",
      "coordinates": {
        "latitude": 9.0497639,
        "longitude": 38.7359819
      },
      "category": "Hotels",
      "description": "",
      "opening_hours": "",
      "contact": {
        "phone": "",
        "email": ""
      }
    },
    {
      "name": "فندق واليا",
      "coordinates": {
        "latitude": 8.9936052,
        "longitude": 38.7665101
      },
      "category": "Hotels",
      "description": "",
      "opening_hours": "",
      "contact": {
        "phone": "",
        "email": ""
      }
    },
    {
      "name": "HeRa Addis Hotel",
      "coordinates": {
        "latitude": 8.9905907,
        "longitude": 38.7537818
      },
      "category": "Hotels",
      "description": "",
      "opening_hours": "",
      "contact": {
        "phone": "0114706109",
        "email": ""
      }
    },
    {
      "name": "Bole Homes",
      "coordinates": {
        "latitude": 8.9875092,
        "longitude": 38.7972194
      },
      "category": "Hotels",
      "description": "",
      "opening_hours": "",
      "contact": {
        "phone": "",
        "email": ""
      }
    },
    {
      "name": "Vamos Addis Hotel",
      "coordinates": {
        "latitude": 8.9924395,
        "longitude": 38.7940203
      },
      "category": "Hotels",
      "description": "",
      "opening_hours": "",
      "contact": {
        "phone": "",
        "email": ""
      }
    },
    {
      "name": "Miky",
      "coordinates": {
        "latitude": 8.9850691,
        "longitude": 38.7547083
      },
      "category": "Hotels",
      "description": "",
      "opening_hours": "",
      "contact": {
        "phone": "",
        "email": ""
      }
    },
    {
      "name": "DHM guest house",
      "coordinates": {
        "latitude": 9.0018678,
        "longitude": 38.8174157
      },
      "category": "Hotels",
      "description": "",
      "opening_hours": "24/7",
      "contact": {
        "phone": "011 667 6262",
        "email": ""
      }
    },
    {
      "name": "Cmore hotel",
      "coordinates": {
        "latitude": 9.0195679,
        "longitude": 38.7880262
      },
      "category": "Hotels",
      "description": "",
      "opening_hours": "",
      "contact": {
        "phone": "",
        "email": ""
      }
    },
    {
      "name": "Zeist Lodge",
      "coordinates": {
        "latitude": 8.9858998,
        "longitude": 38.775183
      },
      "category": "Hotels",
      "description": "",
      "opening_hours": "",
      "contact": {
        "phone": "",
        "email": ""
      }
    },
    {
      "name": "Bonanza",
      "coordinates": {
        "latitude": 8.9947116,
        "longitude": 38.785719
      },
      "category": "Hotels",
      "description": "",
      "opening_hours": "",
      "contact": {
        "phone": "",
        "email": ""
      }
    },
    {
      "name": "Dreamliner Hotel",
      "coordinates": {
        "latitude": 8.9951002,
        "longitude": 38.7669152
      },
      "category": "Hotels",
      "description": "",
      "opening_hours": "",
      "contact": {
        "phone": "",
        "email": ""
      }
    },
    {
      "name": "Nexus Hotel",
      "coordinates": {
        "latitude": 9.0075691,
        "longitude": 38.8053537
      },
      "category": "Hotels",
      "description": "",
      "opening_hours": "",
      "contact": {
        "phone": "",
        "email": ""
      }
    },
    {
      "name": "Golden Royal",
      "coordinates": {
        "latitude": 8.998469,
        "longitude": 38.7831608
      },
      "category": "Hotels",
      "description": "",
      "opening_hours": "",
      "contact": {
        "phone": "",
        "email": ""
      }
    },
    {
      "name": "Tayo Hotel",
      "coordinates": {
        "latitude": 8.9826972,
        "longitude": 38.778867
      },
      "category": "Hotels",
      "description": "",
      "opening_hours": "",
      "contact": {
        "phone": "",
        "email": ""
      }
    },
    {
      "name": "Bole Area Guest House",
      "coordinates": {
        "latitude": 8.9797271,
        "longitude": 38.7778843
      },
      "category": "Hotels",
      "description": "",
      "opening_hours": "",
      "contact": {
        "phone": "",
        "email": ""
      }
    },
    {
      "name": "Keba Guesthouse",
      "coordinates": {
        "latitude": 9.024546,
        "longitude": 38.7905922
      },
      "category": "Hotels",
      "description": "",
      "opening_hours": "",
      "contact": {
        "phone": "",
        "email": ""
      }
    },
    {
      "name": "Melala Addis",
      "coordinates": {
        "latitude": 9.0245962,
        "longitude": 38.7904878
      },
      "category": "Hotels",
      "description": "",
      "opening_hours": "",
      "contact": {
        "phone": "",
        "email": ""
      }
    },
    {
      "name": "Marriot",
      "coordinates": {
        "latitude": 8.9945945,
        "longitude": 38.7892201
      },